[
  {
    "name": "Impresa",
    "address": "Edifício Impresa, Rua Calvet de Magalhães, 242 Paço de Arcos",
    "postalCode": "2770-022",
    "city": "Lisboa",
    "logo": "https://pbs.twimg.com/profile_images/705790834025824256/9_4naRxY.jpg",
    "website": "http://www.impresa.pt/",
    "coordinate": {
      "latitude": 38.709466,
      "longitude": -9.292752
    }
  },
  {
    "name": "Lusa",
    "address": "R. Dr. João Couto, Lote C",
    "postalCode": "1500-236",
    "city": "Lisboa",
    "logo": "http://www.lusa.pt/img/LUSA_top_logo.gif",
    "website": "http://www.globalmediagroup.pt",
    "coordinate": {
      "latitude": 38.751020,
      "longitude": -9.189124
    }
  },
  {
    "name": "Global Media Group",
    "address": "Rua Tomás da Fonseca, Torre E, 3º",
    "postalCode": "1600-209",
    "city": "Lisboa",
    "logo": "http://www.globalmediagroup.pt/wp-content/themes/globalmediagrp/img/logo-globalmedia.png",
    "website": "http://www.globalmediagroup.pt",
    "coordinate": {
      "latitude": 38.757201,
      "longitude": -9.175279
    }
  }
]
